stop_id,stop_code,stop_name,stop_desc,stop_lat,stop_lon,zone_id,stop_url,location_type,parent_station
1,UKD001,Dehradun ISBT,Inter-State Bus Terminal in Dehradun,30.3165,78.0322,,https://utc.uk.gov.in,0,
2,UKD002,Haridwar ISBT,Inter-State Bus Terminal in Haridwar,29.9457,78.1642,,https://utc.uk.gov.in,0,
3,UKD003,Rishikesh ISBT,Inter-State Bus Terminal in Rishikesh,30.0869,78.2676,,https://utc.uk.gov.in,0,
4,UKD004,Haldwani ISBT,Inter-State Bus Terminal in Haldwani,29.2190,79.5236,,https://utc.uk.gov.in,0,
5,UKD005,Nainital ISBT,Inter-State Bus Terminal in Nainital,29.3803,79.4636,,https://utc.uk.gov.in,0,
6,UKD006,Almora ISBT,Inter-State Bus Terminal in Almora,29.5973,79.6609,,https://utc.uk.gov.in,0,
7,UKD007,Pauri ISBT,Inter-State Bus Terminal in Pauri,30.1500,78.7833,,https://utc.uk.gov.in,0,
8,UKD008,Srinagar ISBT,Inter-State Bus Terminal in Srinagar,30.2200,78.7800,,https://utc.uk.gov.in,0,
9,UKD009,Rudrapur ISBT,Inter-State Bus Terminal in Rudrapur,28.9870,79.4146,,https://utc.uk.gov.in,0,
10,UKD010,Bageshwar ISBT,Inter-State Bus Terminal in Bageshwar,29.8370,79.7714,,https://utc.uk.gov.in,0,
11,UKD011,Pithoragarh ISBT,Inter-State Bus Terminal in Pithoragarh,29.5800,80.2180,,https://utc.uk.gov.in,0,
12,UKD012,Champawat ISBT,Inter-State Bus Terminal in Champawat,29.3352,80.1000,,https://utc.uk.gov.in,0,
13,UKD013,Almora ISBT 2,Second Inter-State Bus Terminal in Almora,29.5973,79.6609,,https://utc.uk.gov.in,0,
14,UKD014,Uttarkashi ISBT,Inter-State Bus Terminal in Uttarkashi,30.7333,78.4500,,https://utc.uk.gov.in,0,
15,UKD015,Tehri ISBT,Inter-State Bus Terminal in Tehri,30.3800,78.4800,,https://utc.uk.gov.in,0,
16,UKD016,Mussoorie Bus Stand,City Bus Stand in Mussoorie,30.4599,78.0649,,https://uttarakhandtourism.gov.in,0,
17,UKD017,Lansdowne Bus Stand,City Bus Stand in Lansdowne,29.8390,78.6857,,https://uttarakhandtourism.gov.in,0,
18,UKD018,Auli Bus Stand,City Bus Stop near Auli,30.5285,79.5682,,https://uttarakhandtourism.gov.in,0,
19,UKD019,Kedarnath Base Camp,Base Camp Bus Drop Point in Gaurikund,30.7304,79.0679,,https://uttarakhandtourism.gov.in,0,
20,UKD020,Badrinath Bus Stand,Pilgrimage Bus Stop in Badrinath,30.7433,79.4930,,https://uttarakhandtourism.gov.in,0,
21,UKD021,Gangotri Bus Stand,Pilgrimage Bus Stop in Gangotri,30.9943,78.9398,,https://uttarakhandtourism.gov.in,0,
22,UKD022,Yamunotri Bus Stand,Pilgrimage Bus Stop in Hanuman Chatti,31.0124,78.4702,,https://uttarakhandtourism.gov.in,0,
23,UKD023,Joshimath Bus Stand,Main Bus Terminal in Joshimath,30.5550,79.5662,,https://uttarakhandtourism.gov.in,0,
24,UKD024,Chopta Bus Stand,Scenic Bus Stop in Chopta,30.5374,79.0046,,https://uttarakhandtourism.gov.in,0,
25,UKD025,Munsiyari Bus Stand,Hill Station Bus Terminal in Munsiyari,30.0670,80.2389,,https://uttarakhandtourism.gov.in,0,
26,UKD026,New Tehri Bus Stand,Main Bus Stand in New Tehri,30.3810,78.4800,,https://uttarakhandtourism.gov.in,0,
27,UKD027,Ranikhet Bus Stand,Hill Station Bus Terminal in Ranikhet,29.6432,79.4322,,https://uttarakhandtourism.gov.in,0,
28,UKD028,Kotdwar Bus Stand,Entry Point Bus Terminal in Kotdwar,29.7455,78.5348,,https://uttarakhandtourism.gov.in,0,
29,UKD029,Dhanaulti Bus Stand,Hill Station Bus Stop in Dhanaulti,30.4233,78.2437,,https://uttarakhandtourism.gov.in,0,
30,UKD030,Gopeshwar Bus Stand,Main Bus Terminal in Gopeshwar,30.4103,79.3201,,https://uttarakhandtourism.gov.in,0,
31,UKD031,Narendranagar Bus Stand,Buses to Rishikesh & Tehri,30.1575,78.3096,,https://uttarakhandtourism.gov.in,0,
32,UKD032,Pantnagar Bus Stop,City Bus Point near Airport,29.0275,79.4738,,https://uttarakhandtourism.gov.in,0,
33,UKD033,Kichha Bus Stand,Bus Stand in Kichha Town,28.9195,79.5183,,https://uttarakhandtourism.gov.in,0,
34,UKD034,Jaspur Bus Stand,Bus Terminal in Jaspur Town,29.2784,78.8310,,https://uttarakhandtourism.gov.in,0,
35,UKD035,Bazpur Bus Stand,Local Bus Stand in Bazpur,29.1532,79.1280,,https://uttarakhandtourism.gov.in,0,
36,UKD036,Doiwala Bus Stand,Buses for Dehradun & Rishikesh,30.1804,78.1471,,https://uttarakhandtourism.gov.in,0,
37,UKD037,Vikasnagar Bus Stand,Bus Stop near Vikasnagar,30.4636,77.7638,,https://uttarakhandtourism.gov.in,0,
38,UKD038,Bhimtal Bus Stand,Scenic Hill Bus Stand in Bhimtal,29.3455,79.5522,,https://uttarakhandtourism.gov.in,0,
39,UKD039,Naukuchiatal Bus Point,Hill Lake Town Bus Stop,29.3208,79.6075,,https://uttarakhandtourism.gov.in,0,
40,UKD040,Sitarganj Bus Stand,Plain District Bus Stop in Sitarganj,28.9305,79.6987,,https://uttarakhandtourism.gov.in,0,
41,UKD041,Kichha Crossing Bus Point,Highway Bus Stop Kichha,28.9134,79.5125,,https://uttarakhandtourism.gov.in,0,
42,UKD042,Champawat Town Bus Stop,Town Center Bus Stop,29.3368,80.0982,,https://uttarakhandtourism.gov.in,0,
43,UKD043,Chamba Bus Stand,Main Bus Stand in Chamba Town,30.2872,78.3419,,https://uttarakhandtourism.gov.in,0,
44,UKD044,Ghat Bus Point,Bus Stand near Ghat,30.1484,79.6048,,https://uttarakhandtourism.gov.in,0,
45,UKD045,Lohaghat Bus Stand,City Bus Terminal in Lohaghat,29.4104,80.0905,,https://uttarakhandtourism.gov.in,0,
46,UKD046,Bironkhal Bus Point,Rural Bus Stop in Bironkhal,30.0539,78.8877,,https://uttarakhandtourism.gov.in,0,
47,UKD047,Dugadda Bus Stand,Bus Point in Dugadda Town,29.7400,78.6250,,https://uttarakhandtourism.gov.in,0,
48,UKD048,Naugaon Bus Stand,Bus Stop in Naugaon,30.6306,78.0531,,https://uttarakhandtourism.gov.in,0,
49,UKD049,Tyuni Bus Stand,Border Village Bus Stand Tyuni,30.7376,77.6243,,https://uttarakhandtourism.gov.in,0,
50,UKD050,Syaldey Bus Point,Remote Bus Stop in Syaldey,29.8600,79.0833,,https://uttarakhandtourism.gov.in,0,

